{
  "data": {
    "stores": [
      { "name": "Paris Centre", "lat": 48.8566, "lng": 2.3522, "hours": "Lun–Sam: 9h–19h" },
      { "name": "Lyon Presqu'île", "lat": 45.7640, "lng": 4.8357, "hours": "Lun–Ven: 10h–18h" },
      { "name": "Marseille Vieux-Port", "lat": 43.2965, "lng": 5.3698, "hours": "Mar–Sam: 9h–18h30" },
      { "name": "Toulouse Capitole", "lat": 43.6047, "lng": 1.4442, "hours": "Lun–Sam: 9h–19h" },
      { "name": "Nice Promenade", "lat": 43.7102, "lng": 7.2620, "hours": "Lun–Dim: 10h–17h" },
      { "name": "Nantes Centre", "lat": 47.2184, "lng": -1.5536, "hours": "Lun–Ven: 9h–18h" },
      { "name": "Strasbourg Cathédrale", "lat": 48.5734, "lng": 7.7521, "hours": "Lun–Sam: 9h–19h" },
      { "name": "Montpellier Comédie", "lat": 43.6119, "lng": 3.8772, "hours": "Mar–Sam: 10h–18h" },
      { "name": "Bordeaux Quinconces", "lat": 44.8378, "lng": -0.5792, "hours": "Lun–Ven: 9h–18h" },
      { "name": "Lille Grand Place", "lat": 50.6292, "lng": 3.0573, "hours": "Lun–Sam: 9h–19h" },
      { "name": "Rennes République", "lat": 48.1173, "lng": -1.6778, "hours": "Lun–Ven: 10h–18h" },
      { "name": "Reims Centre", "lat": 49.2583, "lng": 4.0317, "hours": "Mar–Sam: 9h–18h30" },
      { "name": "Le Havre Port", "lat": 49.4944, "lng": 0.1079, "hours": "Lun–Ven: 10h–17h" },
      { "name": "Saint-Étienne Bellevue", "lat": 45.4397, "lng": 4.3872, "hours": "Lun–Sam: 9h–18h" },
      { "name": "Toulon Harbour", "lat": 43.1242, "lng": 5.9280, "hours": "Mar–Sam: 9h–18h" },
      { "name": "Grenoble Bastille", "lat": 45.1885, "lng": 5.7245, "hours": "Lun–Ven: 9h–18h" },
      { "name": "Dijon Centre Ville", "lat": 47.3220, "lng": 5.0415, "hours": "Lun–Sam: 9h–19h" },
      { "name": "Angers Château", "lat": 47.4784, "lng": -0.5632, "hours": "Lun–Ven: 10h–18h" },
      { "name": "Nîmes Arènes", "lat": 43.8367, "lng": 4.3601, "hours": "Mar–Sam: 9h–18h30" },
      { "name": "Clermont-Ferrand Jaude", "lat": 45.7772, "lng": 3.0870, "hours": "Lun–Sam: 9h–19h" }
    ],
    "defaultCenter": { "lat": 46.6034, "lng": 1.8883 },
    "zoom": 6,
    "country": "fr"
  },
  "translations": {
    "%1 store found": "%1 magasin trouvé",
    "%1 stores found": "%1 magasins trouvés",
    "Postcode not found": "Ce code postal n'est pas trouvé",
    "Search": "Rechercher"
  },
  "integration": {
    "requires": ["googleMaps"]
  }
}